id,name,terminalName,lat,long,capacity,EndofDayBikes
864,"Abbey Orchard Street, Westminster",3429,51.4981256,-0.1321021999999914,73,44
394,"Aberdeen Place, St. John's Wood",2698,51.524826,-0.176268,46,28
554,"Aberfeldy Street, Poplar",200078,51.513548,-0.005659,41,25
38,"Abingdon Villas, Kensington",3442,51.4973875,-0.197245586,43,26
505,"Ackroyd Drive, Bow",200038,51.520398,-0.026768,73,44
616,"Aintree Street, Fulham",200098,51.48102131,-0.209973497,61,37
869,"Albert Embankment, Vauxhall",1059,51.4904357,-0.1228069000000005,61,37
483,"Albert Gardens, Stepney",22166,51.51328,-0.047784,84,51
303,"Albert Gate, Hyde Park",1132,51.50295379,-0.158456089,86,52
185,"Alderney Street, Pimlico",1174,51.48805753,-0.140741432,36,22
95,"Aldersgate Street, Barbican",1065,51.5208417,-0.097340162,38,23
26,"Ampton Street , Clerkenwell",1019,51.52728093,-0.11829517,53,32
518,"Antill Road, Mile End",200041,51.528224,-0.037471,76,46
14,"Argyle Street, Kings Cross",1011,51.529416,-0.12394439999999918,114,69
168,"Argyll Road, Kensington",3463,51.50040123,-0.195455928,48,29
545,"Arlington Road, Camden Town",200070,51.539957,-0.145246,61,37
79,"Arundel Street, Temple",3455,51.511726,-0.11385596,46,28
177,"Ashley Place, Victoria",1122,51.49616092,-0.140947636,63,38
461,"Aston Street, Stepney",200013,51.516,-0.038775,66,40
121,"Baker Street, Marylebone",1086,51.51891348,-0.156166631,56,34
319,"Baldwin Street, St. Luke's",3500,51.52702563,-0.088542771,53,32
193,"Bankside Mix, Bankside",963,51.50581776,-0.100186337,151,91
275,"Barbican Centre, Barbican",1191,51.52004497,-0.092176447,48,29
119,"Bath Street, St. Luke's",964,51.52589324,-0.090847761,46,28
272,"Baylis Road, Waterloo",1133,51.50144456,-0.110699309,56,34
153,"Bayswater Road, Hyde Park",1096,51.511933,-0.174411,68,41
242,"Beaumont Street, Marylebone",3482,51.52200801,-0.151359288,58,35
287,"Bedford Way, Bloomsbury",1156,51.52367314,-0.128377673,58,35
699,"Belford House, Haggerston",200057,51.5366541,-0.07023031,99,60
268,"Belgrave Road, Victoria",1087,51.49320445,-0.144132875,73,44
181,"Belgrave Square, Belgravia",3473,51.49941247,-0.152317537,53,32
506,"Bell Lane, Liverpool Street",200036,51.517475,-0.075855,58,35
182,"Bell Street , Marylebone",1166,51.52202903,-0.165842551,46,28
273,"Belvedere Road 1, South Bank",1186,51.50613324,-0.114686385,96,58
321,"Bermondsey Street, Bermondsey",2637,51.49785559,-0.081608045,61,37
246,"Berry Street, Clerkenwell",1159,51.52285301,-0.099994052,104,63
686,"Beryl Road, Hammersmith",200097,51.48814438,-0.222456468,66,40
444,"Bethnal Green Garden, Bethnal Green",200047,51.52568,-0.055312,61,37
132,"Bethnal Green Road, Shoreditch",973,51.52364804,-0.074754872,96,58
681,"Bishop's Avenue, Fulham",200043,51.47303687,-0.214749808,116,70
307,"Black Lion Gate, Kensington Gardens",1157,51.50990837,-0.187842717,61,37
310,"Black Prince Road, Vauxhall",1205,51.4908679,-0.116911864,48,29
28,"Bolsover Street, Fitzrovia",1025,51.52351808,-0.143613641,48,29
125,"Borough High Street, The Borough",996,51.50069491,-0.094524319,53,32
92,"Borough Road, Elephant & Castle",1082,51.49889832,-0.100440521,104,63
45,"Boston Place, Marylebone",1035,51.522511,-0.162298,66,40
259,"Bourne Street, Belgravia",1180,51.490959,-0.1532331,41,25
115,"Braham Street, Aldgate",1062,51.51423368,-0.073537654,86,52
219,"Bramham Gardens, Earl's Court",1183,51.49016361,-0.19039362,73,44
84,"Breams Buildings, Holborn",3449,51.51593725,-0.111778348,63,38
399,"Brick Lane Market, Shoreditch",2687,51.52261762,-0.071653961,61,37
94,"Bricklayers Arms, Borough",1070,51.49506109,-0.085814489,71,43
24,"British Museum, Bloomsbury",981,51.51908011,-0.124678402,89,54
6,"Broadcasting House, Marylebone",3424,51.51811784,-0.144228881,46,28
260,"Broadwick Street, Soho",3489,51.5136846,-0.135580879,46,28
484,"Bromley High Street, Bow",22172,51.528828,-0.013258,61,37
656,"Broomhouse Lane, Parsons Green",200040,51.46841875,-0.199135704,73,44
11,"Brunswick Square, Bloomsbury",1022,51.52395143,-0.122502346,61,37
251,"Brushfield Street, Liverpool Street",1161,51.518908,-0.079249,86,52
44,"Bruton Street, Mayfair",1034,51.51073687,-0.144165239,53,32
331,"Bunhill Row, Moorgate",1211,51.52085887,-0.089887855,76,46
562,"Bury Place, Holborn",200074,51.51742,-0.12318999999999392,53,32
359,"Butler Place, Westminster",2662,51.49782999,-0.135440826,46,28
390,"Buxton Street 1, Shoreditch",1223,51.521776,-0.068856,104,63
395,"Cadogan Gardens, Chelsea",2695,51.492462,-0.159919,38,23
211,"Cadogan Place, Knightsbridge",3469,51.49464523,-0.158105512,86,52
70,"Calshot Street , King's Cross",1066,51.53136059,-0.117069978,61,37
212,"Campden Hill Road, Notting Hill",3487,51.50658458,-0.199004026,43,26
487,"Canton Street, Poplar",22175,51.511811,-0.025626,58,35
232,"Carey Street, Holborn",1139,51.51501025,-0.112753217,41,25
16,"Cartwright Gardens , Bloomsbury",1010,51.52635795,-0.125979294,53,32
457,"Castlehaven Road, Camden Town",200016,51.542138,-0.145393,73,44
33,"Central House, Aldgate",3430,51.515231,-0.07015,46,28
501,"Cephas Street, Bethnal Green",200073,51.522561,-0.054883,61,37
254,"Chadwell Street, Angel",3471,51.53051587,-0.106408455,46,28
141,"Chapel Place, Marylebone",1003,51.51530805,-0.147203711,73,44
7,"Charlbert Street, St. John's Wood",3422,51.53430039,-0.1680743,41,25
226,"Charles II Street, West End",3488,51.50844614,-0.131961389,61,37
381,"Charlotte Street, Fitzrovia",2669,51.51953043,-0.13577731,36,22
427,"Cheapside, Bank",22180,51.51397065,-0.09294031,109,66
419,"Chelsea Bridge, Pimlico",22160,51.485821,-0.149004,38,23
220,"Chelsea Green, Chelsea",1179,51.49066456,-0.166485083,38,23
151,"Chepstow Villas, Notting Hill",1120,51.51213691,-0.201554966,66,40
445,"Cheshire Street, Bethnal Green",200003,51.52388,-0.065076,71,43
516,"Chrisp Street Market, Poplar",200089,51.5112,-0.014438,46,28
489,"Christian Street, Whitechapel",22177,51.513074,-0.064094,86,52
3,"Christopher Street, Liverpool Street",1012,51.52128377,-0.084605692,81,49
365,"City Road, Angel",2690,51.530344,-0.100168,119,72
355,"Clapham Common Station, Clapham Common",2694,51.461388,-0.13922146,53,32
189,"Claremont Square, Angel",1104,51.53166681,-0.109914711,46,28
528,"Clarges Street, Mayfair",200088,51.507326,-0.145827,41,25
291,"Claverton Street, Pimlico",1135,51.48483991,-0.138089062,81,49
412,"Cleaver Street, Kennington",10628,51.488105,-0.110121,43,26
135,"Clerkenwell Green, Clerkenwell",1053,51.52326004,-0.104708922,53,32
164,"Cleveland Gardens, Bayswater",1178,51.515607,-0.183118788,41,25
391,"Clifford Street, Mayfair",2688,51.51066202,-0.142345694,43,26
255,"Clifton Road, Maida Vale",1147,51.52557531,-0.179592915,56,34
323,"Clifton Street, Shoreditch",3501,51.523196,-0.083067,61,37
93,"Cloudesley Road, Angel",2586,51.53440868,-0.109025404,94,57
171,"Collingham Gardens, Earl's Court",3459,51.4916156,-0.186753859,36,22
240,"Colombo Street, Southwark",3472,51.50545935,-0.10569204,36,22
401,"Columbia Road, Shoreditch",2701,51.528187,-0.075375,61,37
40,"Commercial Street, Shoreditch",1083,51.52127071,-0.0755789,41,25
852,"Coomer Place, West Kensington",200081,51.4835707,-0.2020387000000028,68,41
62,"Cotton Garden Estate, Kennington",990,51.4907579,-0.106323685,61,37
341,"Craven Street, Strand",1160,51.50810309,-0.12602103,58,35
43,"Crawford Street, Marylebone",1036,51.52026,-0.157183945,46,28
431,"Crinan Street, King's Cross",22183,51.534474,-0.122203,51,31
682,"Crisp Road, Hammersmith",200059,51.48810829,-0.22660621,116,70
104,"Crosswall, Tower",991,51.51159481,-0.077121322,86,52
298,"Curlew Street, Shad Thames",1213,51.50227992,-0.074189225,53,32
49,"Curzon Street, Mayfair",3437,51.50706909,-0.145904427,41,25
36,"De Vere Gardens, Kensington",3446,51.50173726,-0.184980612,71,43
209,"Denyer Street, Knightsbridge",3454,51.49358391,-0.165101392,76,46
133,"Derry Street, Kensington",3436,51.50136494,-0.191462381,46,28
397,"Devonshire Terrace, Bayswater",1227,51.51348,-0.17977,41,25
317,"Dickens Square, Borough",1208,51.49679128,-0.093913472,81,49
237,"Dock Street, Wapping",3467,51.5097860151,-0.0681619805156,76,46
580,"Doddington Grove, Kennington",200084,51.48692917,-0.102996299,91,55
25,"Doric Way , Somers Town",1004,51.5288338,-0.132250369,126,76
201,"Dorset Square, Marylebone",1162,51.5225965,-0.161113413,41,25
589,"Drayton Gardens, West Chelsea",200060,51.487196,-0.179369,46,28
521,"Driffield Road, Old Ford",200030,51.534137,-0.037366,48,29
20,"Drummond Street , Euston",993,51.527326,-0.13605286,71,43
18,"Drury Lane, Covent Garden",1007,51.51477076,-0.12221963,68,41
244,"Earnshaw Street , Covent Garden",1145,51.51611887,-0.128585022,46,28
455,"East Ferry Road, Cubitt Town",200031,51.49447,-0.014409,43,26
50,"East Road, Hoxton",1054,51.52867339,-0.087459376,68,41
330,"Eastbourne Mews, Paddington",1203,51.51641749,-0.179135079,86,52
423,"Eaton Square (South), Belgravia",22164,51.49456127,-0.15393398,78,47
424,"Ebury Bridge, Pimlico",22159,51.490491,-0.149186,73,44
167,"Eccleston Place, Victoria",3465,51.49395092,-0.147624377,48,29
410,"Edgware Road Station, Marylebone",1058,51.519968,-0.169774,162,98
288,"Elizabeth Bridge, Victoria",1138,51.49236962,-0.147478734,86,52
617,"Elysium Place, Fulham",200028,51.47107905,-0.207842908,53,32
309,"Embankment (Savoy), Strand",1192,51.50963123,-0.119047563,104,63
128,"Emperor's Gate, South Kensington",1116,51.49536226,-0.185296516,56,34
269,"Empire Square, The Borough",1209,51.50082346,-0.089740764,116,70
214,"Endsleigh Gardens, Euston",1079,51.52683806,-0.130504336,81,49
69,"Euston Road, Euston",983,51.5262363,-0.134407652,61,37
131,"Eversholt Street , Camden Town",1005,51.53300545,-0.136792671,41,25
432,"Exhibition Road Museums 1, South Kensington",22158,51.496468,-0.17379696,33,20
482,"Exhibition Road Museums 2, South Kensington",200052,51.495947,-0.17368958,36,22
428,"Exhibition Road, Knightsbridge",22179,51.499917,-0.174554,51,31
96,"Falkirk Street, Hoxton",1047,51.53095071,-0.078505384,66,40
31,"Fanshaw Street, Hoxton",3427,51.52953709,-0.083353323,91,55
382,"Farm Street, Mayfair",2678,51.50935171,-0.14744969,38,23
72,"Farringdon Lane, Clerkenwell",3432,51.52352001,-0.108340165,41,25
236,"Fashion Street, Whitechapel",3483,51.51838043,-0.073438925,76,46
615,"Finlay Street, Fulham",200029,51.4768851,-0.215895601,61,37
55,"Finsbury Circus, Liverpool Street",984,51.51707521,-0.086685542,84,51
107,"Finsbury Leisure Centre, St. Luke's",1049,51.52600832,-0.096317627,51,31
51,"Finsbury Library , Finsbury",986,51.52671796,-0.104298194,73,44
140,"Finsbury Square , Moorgate",1056,51.52096262,-0.085634242,84,51
387,"Fire Brigade Pier, Vauxhall",2703,51.49369988,-0.121394101,76,46
448,"Fisherman's Walk West, Canary Wharf",22165,51.50623,-0.02296,91,55
345,"Flood Street, Chelsea",1218,51.48802358,-0.166878535,84,51
311,"Foley Street, Fitzrovia",3494,51.51918144,-0.140485596,61,37
517,"Ford Road, Old Ford",200027,51.532513,-0.033085,46,28
238,"Frampton Street, Paddington",1099,51.5233534,-0.175116099,81,49
383,"Frith Street, Soho",2660,51.51310333,-0.13121385,46,28
499,"Furze Green, Bow",200011,51.519265,-0.021345,91,55
453,"Garnet Street, Shadwell",200045,51.508447,-0.055167,61,37
403,"George Place Mews, Marylebone",10630,51.51689296,-0.158249929,41,25
840,"George Row, Bermondsey",2679,51.498585,-0.068981764,56,34
400,"George Street, Marylebone",1225,51.517703,-0.154106,68,41
297,"Geraldine Street, Elephant & Castle",3498,51.49612799,-0.106000855,43,26
113,"Gloucester Road (Central), South Kensington",3435,51.49646288,-0.183289032,48,29
97,"Gloucester Road (North), Kensington",3447,51.49792478,-0.183834706,46,28
405,"Gloucester Road Station, South Kensington",1107,51.49418566,-0.18267094,38,23
243,"Gloucester Street, Pimlico",1103,51.49096258,-0.139625122,63,38
176,"Gloucester Terrace, Bayswater",1173,51.51791921,-0.188098863,58,35
48,"Godliman Street, St. Paul's",971,51.51248445,-0.099141408,63,38
54,"Golden Lane, Barbican",967,51.52174785,-0.094475072,68,41
129,"Golden Square, Soho",3451,51.5118973,-0.137043852,46,28
344,"Goswell Road (City Uni), Finsbury",1222,51.528246,-0.10102611,43,26
65,"Gower Place , Euston",969,51.52522753,-0.13518856,43,26
53,"Grafton Street, Mayfair",3431,51.5099923,-0.143495266,46,28
326,"Graham Street, Angel",1131,51.53266186,-0.099981142,66,40
486,"Granby Street, Shoreditch",22174,51.525645,-0.069543,94,57
61,"Great Dover Street, The Borough",1017,51.49738251,-0.089446947,84,51
227,"Great Percy Street, Clerkenwell",3470,51.52891573,-0.115480888,58,35
15,"Great Russell Street, Bloomsbury",988,51.51772703,-0.127854211,66,40
81,"Great Titchfield Street, Fitzrovia",3450,51.52025302,-0.141327271,48,29
199,"Great Tower Street, Monument",1080,51.51048489,-0.082989638,61,37
541,"Green Park Station, Mayfair",200096,51.506613,-0.142844,71,43
138,"Green Street, Mayfair",3464,51.51227622,-0.157436972,48,29
572,"Greenland Road, Camden Town",200026,51.539099,-0.141728,91,55
353,"Greycoat Street , Westminster",10623,51.49459148,-0.134234258,43,26
207,"Grosvenor Crescent, Belgravia",1169,51.50135267,-0.153194766,46,28
245,"Grosvenor Road, Pimlico",1140,51.4853572,-0.142207481,73,44
348,"Grosvenor Square, Mayfair",10627,51.51217033,-0.150481272,43,26
312,"Grove End Road, St. John's Wood",1130,51.53088935,-0.176770502,51,31
161,"Guildhouse Street, Victoria",3478,51.49234577,-0.141334487,41,25
57,"Guilford Street , Bloomsbury",974,51.52334672,-0.120202614,81,49
459,"Gunmakers Lane, Old Ford",200014,51.535179,-0.03338,43,26
98,"Hampstead Road, Euston",972,51.52554222,-0.138231303,136,82
152,"Hampton Street, Walworth",1118,51.49217002,-0.101536865,53,32
170,"Hardwick Street, Clerkenwell",1057,51.5278427,-0.1080682,76,46
249,"Harper Road, The Borough",1137,51.49859784,-0.096191134,106,64
368,"Harriet Street, Knightsbridge",2681,51.50024195,-0.15934065,63,38
90,"Harrington Square 1, Camden Town",1038,51.53301907,-0.139174593,68,41
367,"Harrowby Street, Marylebone",2680,51.5173721,-0.1642075,41,25
67,"Hatton Garden, Holborn",985,51.51882555,-0.108028472,71,43
17,"Hatton Wall, Holborn",1008,51.5216612,-0.109006325,66,40
677,"Heath Road, Battersea",200023,51.46866929,-0.146544642,68,41
29,"Hereford Road, Bayswater",1016,51.513735,-0.193487,56,34
451,"Hermitage Court, Wapping",200021,51.504719,-0.063531,41,25
471,"Hewison Street, Old Ford",200006,51.533283,-0.028155,48,29
358,"High Holborn , Covent Garden",1229,51.516226,-0.124826,51,31
210,"Hinde Street, Marylebone",3476,51.51681444,-0.151926305,53,32
66,"Holborn Circus, Holborn",982,51.51795029,-0.108657431,101,61
627,"Holden Street, Battersea",200007,51.4687905,-0.158230901,51,31
398,"Holland Park, Kensington",10631,51.502319,-0.200742,76,46
150,"Holy Trinity Brompton, Knightsbridge",1002,51.49705603,-0.168917077,71,43
194,"Hop Exchange, The Borough",960,51.50462759,-0.091773776,141,85
221,"Horseferry Road, Westminster",1170,51.49481649,-0.13045856,41,25
256,"Houghton Street, Strand",3484,51.51362054,-0.116764211,38,23
779,"Houndsditch, Aldgate",200072,51.514449,-0.077178979,71,43
360,"Howick Place, Westminster",2666,51.49675303,-0.138733562,68,41
357,"Howland Street, Fitzrovia",2691,51.520994,-0.139016,76,46
588,"Hoxton Street, Hoxton",200071,51.52959,-0.0801,68,41
191,"Hyde Park Corner, Hyde Park",1075,51.50311799,-0.153520935,91,55
584,"Ilchester Gardens, Bayswater",200086,51.51244,-0.19096,53,32
145,"Ilchester Place, Kensington",1115,51.50074359,-0.202759212,61,37
392,"Imperial College, Knightsbridge",1220,51.49942855,-0.179702476,53,32
551,"Import Dock, Canary Wharf",200066,51.505772,-0.016460175,99,60
102,"Jewry Street, Aldgate",1045,51.51340693,-0.076793375,43,26
447,"Jubilee Crescent, Cubitt Town",200054,51.493381,-0.007542,136,82
450,"Jubilee Street, Stepney",200002,51.515975,-0.053177,71,43
144,"Kennington Cross, Kennington",1093,51.48894022,-0.111435796,119,72
868,"Kennington Lane Rail Bridge, Vauxhall",1190,51.4863434,-0.12249239999999872,78,47
440,"Kennington Oval, Oval",200032,51.483145,-0.113134,84,51
149,"Kennington Road Post Office, Oval",1073,51.48478899,-0.110683213,46,28
235,"Kennington Road, Vauxhall",1154,51.49571828,-0.110889274,91,55
435,"Kennington Station, Kennington",22170,51.488852,-0.105593,58,35
277,"Kensington Church Street, Kensington",1143,51.50315739,-0.191496313,43,26
258,"Kensington Gore, Knightsbridge",1193,51.50143293,-0.178656971,58,35
293,"Kensington Olympia Station, Olympia",1214,51.49815779,-0.209494128,63,38
375,"Kensington Town Hall, Kensington",10632,51.50194596,-0.194392952,46,28
439,"Killick Street, King's Cross",200053,51.5338,-0.118677,56,34
371,"King Edward Walk, Waterloo",2639,51.49775,-0.10988,56,34
283,"Kingsway, Covent Garden",1141,51.51440928,-0.118478757,41,25
296,"Knaresborough Place, Earl's Court",200069,51.49363156,-0.190603326,46,28
222,"Knightsbridge, Hyde Park",1101,51.50275704,-0.155349725,109,66
200,"LMU Commercial Road, Whitechapel",1105,51.51492456,-0.066078037,36,22
262,"LSBU (Borough Road), Elephant & Castle",1095,51.49874469,-0.103132904,89,54
560,"Ladbroke Grove Central, Ladbroke Grove",200015,51.511624,-0.205921,53,32
284,"Lambeth North Station, Waterloo",1117,51.49914063,-0.112031483,51,31
139,"Lambeth Road, Vauxhall",1078,51.49488108,-0.117974901,46,28
524,"Lancaster Gate , Bayswater",200017,51.511654,-0.179668,96,58
21,"Lansdowne Drive, Hackney Central",3426,51.539834,-0.062806212,66,40
543,"Lansdowne Walk, Ladbroke Grove",200065,51.509591,-0.204666,53,32
202,"Leman Street, Aldgate",1102,51.51236389,-0.06954201,94,57
865,"Leonard Circus , Shoreditch",1020,51.5246962,-0.08443930000001387,109,66
155,"Lexham Gardens, Kensington",1121,51.49586666,-0.191933711,48,29
475,"Lightermans Road, Millwall",200004,51.499041,-0.020157,78,47
573,"Limerston Street, West Chelsea",200001,51.485587,-0.18119,46,28
469,"Lindfield Street, Poplar",22178,51.513757,-0.020467,111,67
60,"Lisson Grove, St. John's Wood",1030,51.52644828,-0.172190727,46,28
116,"Little Argyll Street, West End",995,51.51449962,-0.141423695,53,32
234,"Liverpool Road (N1 Centre), Angel",1081,51.53450449,-0.106992706,61,37
117,"Lollard Street, Vauxhall",998,51.49288067,-0.114934001,63,38
614,"London Fields, Hackney Central",200025,51.54119,-0.058826101,53,32
343,"London Zoo Car Park, The Regent's Park",1188,51.53692216,-0.150181444,91,55
271,"London Zoo,  The Regent's Park",1136,51.53583617,-0.156285395,81,49
308,"Long Lane , Bermondsey",1189,51.49907558,-0.085666316,51,31
76,"Longford Street, The Regent's Park",976,51.52559505,-0.144083893,53,32
870,"Lower Marsh, Waterloo",1219,51.5001394,-0.11393599999999537,43,26
276,"Lower Thames Street, Monument",1098,51.50930161,-0.084985356,61,37
351,"Macclesfield Rd, St Lukes",1226,51.529423,-0.097122,71,43
8,"Maida Vale, Maida Vale",3423,51.529857,-0.18348604,99,60
12,"Malet Street, Bloomsbury",980,51.52168078,-0.130431727,124,75
208,"Mallory Street, Marylebone",1175,51.52505151,-0.166304359,51,31
472,"Malmesbury Road, Bow",200019,51.529452,-0.027616,53,32
529,"Manresa Road, Chelsea",200010,51.486892,-0.170983,46,28
204,"Margery Street, Clerkenwell",3468,51.52659961,-0.112432615,48,29
384,"Marloes Road, Kensington",3505,51.496481,-0.192404,38,23
301,"Marylebone Lane, Marylebone",1152,51.51475963,-0.148105415,61,37
704,"Mexfield Road, East Putney",200063,51.45682071,-0.202802098,46,28
376,"Millbank Tower, Pimlico",2683,51.49188409,-0.125674815,61,37
366,"Millennium Hotel, Mayfair",1230,51.5109192966489,-0.1511263847351,68,41
473,"Millharbour, Millwall",22167,51.496137,-0.019355,48,29
195,"Milroy Walk, South Bank",959,51.50724437,-0.106237501,76,46
292,"Montpelier Street, Knightsbridge",1206,51.49888404,-0.165471605,41,25
587,"Monument Street, Monument",200101,51.50964,-0.08497,56,34
386,"Moor Street, Soho",3504,51.51352755,-0.130110822,41,25
215,"Moorfields, Moorgate",1092,51.51906932,-0.088285377,136,82
586,"Mudchute DLR, Cubitt Town",200092,51.490645,-0.014582,78,47
63,"Murray Grove , Hoxton",989,51.53089041,-0.089782579,68,41
126,"Museum of London, Barbican",1043,51.51782144,-0.096496865,131,79
454,"Napier Avenue, Millwall",200046,51.487679,-0.021582,51,31
378,"Natural History Museum, South Kensington",2677,51.49559291,-0.179077626,106,64
538,"Naval Row, Blackwall",200050,51.508981,-0.00699,53,32
46,"Nesham Street, Wapping",1031,51.507131,-0.06691,41,25
332,"Nevern Place, Earl's Court",1210,51.49334336,-0.194757949,51,31
581,"New Cavendish Street, Marylebone",200005,51.519167,-0.147983,46,28
546,"New Fetter Lane, Holborn",200044,51.517428,-0.107987,53,32
9,"New Globe Walk, Bankside",1015,51.5073853,-0.096440751,48,29
58,"New Inn Yard, Shoreditch",1032,51.52452699,-0.079248081,51,31
156,"New Kent Road, The Borough",966,51.49443626,-0.092921165,84,51
328,"New North Road 2, Hoxton",2641,51.53114,-0.086016,56,34
206,"New Road 1 , Whitechapel",1171,51.518154,-0.062697,91,55
71,"Newgate Street , St. Paul's",1074,51.515768,-0.09989400000000614,89,54
180,"North Audley Street, Mayfair",1126,51.5129118,-0.153645496,43,26
279,"North Wharf Road, Paddington",1108,51.518623,-0.17660300000000007,58,35
593,"Northdown Street, King's Cross",200058,51.531066,-0.11934,53,32
22,"Northington Street , Holborn",3425,51.5222641,-0.114079481,48,29
354,"Northumberland Avenue, Strand",1097,51.506767,-0.123702,94,57
122,"Norton Folgate, Liverpool Street",1068,51.52111369,-0.078869751,58,35
225,"Notting Hill Gate Station, Notting Hill",1182,51.50935342,-0.196422,76,46
188,"Nutford Place, Marylebone",1112,51.5165179,-0.164393768,46,28
216,"Old Brompton Road, South Kensington",3479,51.49094565,-0.181190899,76,46
485,"Old Ford Road, Bethnal Green",22173,51.531127,-0.048017,61,37
99,"Old Quebec Street, Marylebone",1085,51.51457763,-0.158264483,41,25
73,"Old Street Station, St. Luke's",1064,51.525615,-0.08853260000000773,86,52
324,"Ontario Street, Elephant & Castle",1200,51.49652013,-0.101384068,38,23
165,"Orsett Terrace, Bayswater",2585,51.517932,-0.183716959,38,23
370,"Paddington Green, Paddington",2670,51.520205,-0.174593,51,31
56,"Paddington Street, Marylebone",1033,51.52058381,-0.154701411,41,25
558,"Page Street, Westminster",200048,51.493978,-0.127554,61,37
333,"Palace Gardens Terrace, Notting Hill",2633,51.50860544,-0.193764092,94,57
404,"Palace Gate, Kensington Gardens",1110,51.50204238,-0.184400221,33,20
322,"Palissy Street, Shoreditch",3502,51.526293,-0.073955,66,40
233,"Pall Mall East, West End",1153,51.50777049,-0.130699733,56,34
34,"Pancras Road, King's Cross",3428,51.5341235,-0.129386874,41,25
83,"Panton Street, West End",3452,51.50963938,-0.131510949,53,32
111,"Park Lane , Hyde Park",1037,51.5100172,-0.157275636,71,43
114,"Park Road (Baker Street), The Regent's Park",1050,51.52451738,-0.158963647,56,34
10,"Park Street, Bankside",1024,51.50597426,-0.092754157,46,28
337,"Pembridge Villas, Notting Hill",2589,51.51108452,-0.197524944,41,25
402,"Penfold Street, Marylebone",10625,51.52289229,-0.171681991,38,23
490,"Pennington Street, Wapping",200090,51.508622,-0.065006,114,69
37,"Penywern Road, Earl's Court",3444,51.49159394,-0.192369256,43,26
544,"Percival Street, Finsbury",200051,51.526153,-0.102208,56,34
2,"Phillimore Gardens, Kensington",1018,51.49960695,-0.197574246,94,57
443,"Philpot Street, Whitechapel",200033,51.515256,-0.058641,76,46
143,"Pont Street, Knightsbridge",1114,51.4968865,-0.161203828,61,37
169,"Porchester Place, Paddington",3477,51.5147461,-0.1651640000000043,46,28
184,"Portland Place, Marylebone",1164,51.52071513,-0.14521173,86,52
514,"Portman Square, Marylebone",200008,51.516204,-0.155525,43,26
147,"Portugal Street, Holborn",3456,51.51494305,-0.11614642,41,25
230,"Poured Lines, Bankside",1144,51.50669284,-0.103137426,78,47
329,"Prince Albert Road, The Regent's Park",2636,51.53589283,-0.160854428,61,37
373,"Prince Consort Road, Knightsbridge",3499,51.49980661,-0.176415994,46,28
611,"Princedale Road , Holland Park",200067,51.50646524,-0.208486599,51,31
261,"Princes Square, Bayswater",3491,51.5134891,-0.191351186,41,25
867,"Pritchard's Road, Bethnal Green",200083,51.532091,-0.061419999999998254,76,46
302,"Putney Pier, Wandsworth",3492,51.466907,-0.216573,71,43
320,"Queen Mother Sports Centre, Victoria",1148,51.49357351,-0.139956043,66,40
101,"Queen Street 1, Bank",999,51.51155322,-0.0929401,56,34
136,"Queen Victoria Street, St. Paul's",1048,51.51196176,-0.097441687,81,49
231,"Queen's Gate (Central), South Kensington",1089,51.49396755,-0.17873226,78,47
266,"Queen's Gate (North), Kensington",1204,51.50102668,-0.180246101,104,63
187,"Queen's Gate (South), South Kensington",1172,51.49247977,-0.178433004,63,38
350,"Queen's Gate, Kensington Gardens",1231,51.5017154373867,-0.1798541843891,53,32
536,"Queensbridge Road, Haggerston",200024,51.53385,-0.06992,89,54
224,"Queensway, Kensington Gardens",1150,51.51031,-0.18740235,43,26
766,"Ram Street, Wandsworth",200079,51.45752945,-0.192165613,63,38
190,"Rampayne Street, Pimlico",1106,51.48997562,-0.132845681,53,32
306,"Rathbone Street, Fitzrovia",3497,51.51816295,-0.135025698,41,25
488,"Reardon Street, Wapping",22176,51.506946,-0.058681,56,34
561,"Rectory Square, Stepney",200037,51.518369,-0.043371,56,34
23,"Red Lion Square, Holborn",3421,51.51943538,-0.119123345,41,25
436,"Red Lion Street, Holborn",22171,51.51824,-0.11655,91,55
267,"Regency Street, Westminster",1155,51.49206037,-0.132224622,56,34
553,"Regent's Row , Haggerston",200064,51.535678,-0.062546,61,37
339,"Risinghill Street, Angel",1127,51.5333196,-0.1117812,63,38
1,"River Street , Clerkenwell",1023,51.52916347,-0.109970527,48,29
183,"Riverlight North, Nine Elms",1165,51.482362,-0.13612398,61,37
118,"Rochester Row, Westminster",3457,51.49582705,-0.13547809,33,20
223,"Rodney Road , Walworth",3481,51.49148474,-0.090220911,61,37
52,"Roscoe Street, St. Luke's",1026,51.52295439,-0.094934859,46,28
411,"Rotherhithe Roundabout, Rotherhithe",10629,51.499169,-0.055846029,48,29
250,"Royal Avenue 1, Chelsea",3440,51.489932,-0.162727,26,16
280,"Royal Avenue 2, Chelsea",3462,51.490083,-0.162418,26,16
362,"Royal College Street, Camden Town",2686,51.536264,-0.133952,144,87
282,"Royal London Hospital, Whitechapel",1077,51.518675,-0.06111,106,64
515,"Russell Gardens, Olympia",200080,51.500088,-0.211316,61,37
77,"Russell Square Station, Bloomsbury",978,51.52341837,-0.124121774,66,40
318,"Sackville Street, Mayfair",1197,51.51004801,-0.138846453,46,28
78,"Sadlers Sports Centre, Finsbury",3433,51.52486887,-0.099489485,43,26
441,"Sail Street, Vauxhall",200039,51.495656,-0.114605,61,37
86,"Sancroft Street, Vauxhall",3434,51.48947903,-0.115156562,61,37
372,"Sardinia Street, Holborn",2649,51.515208,-0.117863,61,37
481,"Saunders Ness Road, Cubitt Town",200022,51.487129,-0.0090011,89,54
13,"Scala Street, Fitzrovia",970,51.51991453,-0.136039674,53,32
5,"Sedding Street, Sloane Square",3420,51.49313,-0.156876,68,41
300,"Serpentine Car Park, Hyde Park",1217,51.505014,-0.17306032,46,28
166,"Seville Street, Knightsbridge",1177,51.50185512,-0.159237081,68,41
449,"Shadwell Station, Shadwell",200020,51.511088,-0.057159,89,54
39,"Shoreditch High Street, Shoreditch",3445,51.5263778,-0.078130921,104,63
253,"Shoreditch Park, Hoxton",1051,51.53404294,-0.086379717,76,46
396,"Shouldham Street, Marylebone",2693,51.51809,-0.163609,41,25
163,"Sloane Avenue, Knightsbridge",3461,51.4931848,-0.167894973,68,41
281,"Smith Square, Westminster",3480,51.49580589,-0.127575233,46,28
393,"Snow Hill, Farringdon",2699,51.51733427,-0.103604248,38,23
109,"Soho Square , Soho",1052,51.51563144,-0.132328837,144,87
564,"Somerset House, Strand",200068,51.509943,-0.117619,104,63
289,"South Audley Street, Mayfair",3493,51.50923,-0.15128999999998882,38,23
356,"South Kensington Station, South Kensington",2685,51.494412,-0.173881,38,23
430,"South Parade, Chelsea",22182,51.48902,-0.17524,46,28
186,"South Wharf Road, Paddington",1167,51.51733558,-0.175810943,41,25
162,"Southampton Place, Holborn",1123,51.51760685,-0.121328408,51,31
388,"Southampton Street, Strand",1228,51.51070161,-0.121723604,36,22
421,"Southwark Station 2, Southwark",22163,51.504044,-0.104778,114,69
265,"Southwick Street, Paddington",3490,51.51595344,-0.169249375,43,26
477,"Spindrift Avenue, Millwall",200018,51.49109,-0.018716,91,55
290,"St Mary's Hospital, Paddington",3496,51.518268,-0.17110323,51,31
703,"St. Bride Street, Holborn",200094,51.51505991,-0.10534448,63,38
4,"St. Chad's Street, King's Cross",1013,51.53005939,-0.120973687,58,35
349,"St. George Street, Mayfair",1221,51.51196,-0.142783033,46,28
294,"St. George's Square, Pimlico",1195,51.488226,-0.135635511,41,25
228,"St. James's Square, St. James's",1067,51.50742485,-0.134621209,101,61
123,"St. John Street, Finsbury",992,51.52836014,-0.104724625,46,28
247,"St. John's Wood Church, The Regent's Park",1091,51.530529,-0.167515,126,76
286,"St. John's Wood Road, St. John's Wood",1187,51.5272947,-0.174653609,89,54
452,"St. Katharine's Way, Tower",200049,51.505697,-0.070542,61,37
218,"St. Luke's Church, Chelsea",3486,51.48971651,-0.170194408,51,31
325,"St. Martin's Street, West End",1158,51.50908747,-0.129697889,46,28
464,"St. Mary & St. Michael Church, Stepney",200082,51.51417,-0.052099,63,38
263,"St. Mary Axe, Aldgate",1184,51.51422502,-0.080660083,53,32
197,"Stamford Street, South Bank",962,51.50556905,-0.111606696,68,41
380,"Stanhope Gate, Mayfair",3506,51.50686435,-0.150666888,53,32
476,"Stebondale Street, Cubitt Town",200009,51.489096,-0.009205,73,44
478,"Stepney Green Station, Stepney",200012,51.521889,-0.04667,53,32
364,"Store Street, Bloomsbury",3507,51.519572,-0.13214036,81,49
857,"Strand, Strand",1100,51.512582,-0.11505729999998948,89,54
409,"Strata, Elephant & Castle",10624,51.493146,-0.099828,104,63
172,"Sumner Place, South Kensington",1124,51.49121192,-0.173715911,48,29
408,"Sun Street, Liverpool Street",1129,51.520009,-0.083935724,61,37
295,"Swan Street, The Borough",1216,51.50029631,-0.092762704,68,41
148,"Tachbrook Street, Victoria",965,51.49211134,-0.138364847,41,25
85,"Tanner Street, Bermondsey",994,51.50064702,-0.078600401,104,63
89,"Tavistock Place, Bloomsbury",3439,51.5262503,-0.123509611,48,29
335,"Tavistock Street, Covent Garden",1207,51.51196803,-0.120718759,84,51
19,"Taviton Street, Bloomsbury",1009,51.52505093,-0.131161087,76,46
315,"The Tennis Courts, The Regent's Park",1199,51.52536703,-0.153463612,41,25
68,"Theobald's Road , Holborn",975,51.52059681,-0.116688468,66,40
463,"Thurtle Road, Haggerston",200093,51.534776,-0.071881,56,34
278,"Tooley Street, Bermondsey",1142,51.5034938,-0.07962099,68,41
75,"Torrens Street, Angel",1060,51.53219984,-0.105480698,48,29
130,"Tower Gardens , Tower",1071,51.50950627,-0.075459482,61,37
841,"Tower Wharf, Bermondsey",2667,51.500845,-0.074704305,51,31
158,"Trebovir Road, Earl's Court",1113,51.49085368,-0.196170309,46,28
248,"Triangle Car Park, Hyde Park",1088,51.50645179,-0.170279555,68,41
379,"Turquoise Island, Notting Hill",2682,51.51431171,-0.200838199,53,32
314,"Tyers Gate, Bermondsey",3485,51.50088934,-0.083159352,91,55
264,"Tysoe Street, Clerkenwell",1146,51.52644342,-0.109256828,51,31
196,"Union Street, The Borough",961,51.50368837,-0.098497684,43,26
570,"Upper Bank Street, Canary Wharf",200099,51.503083,-0.017676,91,55
389,"Upper Grosvenor Street, Mayfair",10621,51.51013066,-0.155757901,46,28
146,"Vauxhall Bridge , Pimlico",1046,51.48836528,-0.129361842,89,54
74,"Vauxhall Cross, Vauxhall",1000,51.48591714,-0.124469948,43,26
352,"Vauxhall Street, Vauxhall",1224,51.486965,-0.116625,48,29
437,"Vauxhall Walk, Vauxhall",200056,51.488124,-0.120903,68,41
701,"Vicarage Crescent, Battersea",200077,51.47287627,-0.176267008,76,46
103,"Vicarage Gate, Kensington",3441,51.50472376,-0.192538767,46,28
299,"Vincent Square, Westminster",1196,51.49398524,-0.136928582,48,29
426,"Vincent Street, Pimlico",22161,51.493072,-0.129925,43,26
442,"Walmer Road, Avondale",200035,51.510101,-0.211358,61,37
91,"Walnut Tree Walk, Vauxhall",1076,51.49368637,-0.111014912,51,31
621,"Wandsworth Town Station, Wandsworth",200091,51.46086446,-0.187427294,84,51
134,"Wapping High Street, Wapping",1039,51.504904,-0.06797,51,31
458,"Wapping Lane, Wapping",200034,51.504749,-0.057544,71,43
192,"Wardour Street, Soho",1163,51.51251523,-0.133201961,41,25
239,"Warren Street Station, Euston",1090,51.52443845,-0.138019439,66,40
47,"Warwick Avenue Station, Maida Vale",1027,51.52334476,-0.183846408,48,29
274,"Warwick Road, Olympia",1134,51.49671237,-0.20528437,91,55
316,"Warwick Row, Westminster",968,51.497998,-0.14296064,53,32
178,"Warwick Square, Pimlico",3460,51.48985626,-0.141923621,48,29
377,"Waterloo Bridge, South Bank",2648,51.50535447,-0.113656543,38,23
160,"Waterloo Place, St. James's",3458,51.50663341,-0.131773845,51,31
173,"Waterloo Road, South Bank",1176,51.50486,-0.113001,38,23
374,"Waterloo Station 1, Waterloo",2696,51.50402794,-0.11386436,91,55
361,"Waterloo Station 2, Waterloo",2692,51.50391973,-0.11342629,121,73
154,"Waterloo Station 3, Waterloo",1072,51.50379168,-0.11282408,89,54
80,"Webber Street , Southwark",3448,51.50069361,-0.102091246,114,69
213,"Wellington Arch, Hyde Park",1109,51.50274025,-0.149569201,91,55
110,"Wellington Road, St. John's Wood",1055,51.53304322,-0.172528678,43,26
338,"Wellington Street , Strand",1202,51.51175646,-0.119643424,61,37
313,"Wells Street, Fitzrovia",3495,51.51734403,-0.138072691,96,58
42,"Wenlock Road , Hoxton",979,51.53099181,-0.093903825,71,43
142,"West Cromwell Road, Earl's Court",1001,51.49372451,-0.198286569,61,37
203,"West Smithfield Rotunda, Farringdon",1040,51.51821864,-0.100791005,38,23
327,"Westbourne Green, Westbourne",1128,51.522168,-0.1928141999999866,53,32
105,"Westbourne Grove, Bayswater",1041,51.51552971,-0.190240716,66,40
571,"Westfield Southern Terrace ,Shepherd's Bush",200061,51.506256,-0.218337,73,44
548,"Westminster Bridge Road, Elephant & Castle",200076,51.498386,-0.107913,66,40
257,"Westminster University, Marylebone",1194,51.52248185,-0.154907218,41,25
229,"Whitehall Place, Strand",1151,51.50654321,-0.123179697,116,70
64,"William IV Street, Strand",1028,51.50946212,-0.124749274,66,40
628,"William Morris Way, Sands End",200062,51.46881971,-0.184318843,66,40
30,"Windsor Terrace, Hoxton",1029,51.52915444,-0.093421615,61,37
106,"Woodstock Street, Mayfair",1042,51.51410514,-0.147301667,53,32
217,"Wormwood Street, Liverpool Street",2587,51.51615461,-0.082422399,41,25
175,"Worship Street, Shoreditch",997,51.521668,-0.079608554,129,78
433,"Wren Street, Holborn",22169,51.524564,-0.116279,84,51
157,"Wright's Lane, Kensington",1094,51.50039792,-0.193068385,94,57
446,"York Hall, Bethnal Green",200042,51.528936,-0.055894,68,41
